{
  "users": [
    {
      "id": 1,
      "name": "tinkubhaicvbcvb",
      "phone": "7788994455",
      "location": "Jaipur"
    },
    {
      "id": 2,
      "name": "chinkiya ke papa",
      "phone": "7788994455",
      "location": "Mumbai"
    },
    {
      "id": 3,
      "name": "chutkuya",
      "phone": "7788994455",
      "location": "Mumbai"
    },
    {
      "id": 4,
      "name": "chinky",
      "phone": "7788994455",
      "location": "Jaipur"
    },
    {
      "name": "chintu",
      "phone": "7894561230",
      "location": "Metaube",
      "id": 5
    },
    {
      "name": "chutki",
      "phone": "46567891230",
      "location": "Mumbai",
      "id": 6
    },
    {
      "name": "rhgfd",
      "phone": "fdgfg",
      "location": "fdgdfgdf",
      "id": 7
    },
    {
      "name": "ajay",
      "phone": "7894561235",
      "location": "ssadfasd",
      "id": 8
    },
    {
      "name": "ajay vijay",
      "phone": "sadsad",
      "location": "sadsa",
      "id": 9
    },
    {
      "name": "op",
      "phone": "tgg",
      "location": "dfgfgfg",
      "id": 10
    },
    {
      "name": "kamlesh boy",
      "phone": "rrhghtf",
      "location": "dffgd",
      "id": 11
    },
    {
      "name": "Withoutbower",
      "phone": "sadsa",
      "location": "asdsa",
      "id": 12
    },
    {
      "name": "Ajayggsdfy",
      "phone": "fsaas",
      "location": "awdfasd",
      "id": 13
    },
    {
      "name": "ghjghj",
      "phone": "ghj",
      "location": "jghj",
      "id": 14
    },
    {
      "name": "rty",
      "phone": "rtyrt",
      "location": "tryrty",
      "id": 15
    },
    {
      "id": 16,
      "name": "rtryrtytryutu",
      "phone": "utyu",
      "location": "ytuuy"
    },
    {
      "id": 17,
      "name": "a",
      "phone": "aaaaaaaaaaaaaa",
      "location": "aaaaaaaaaaaaaaaa"
    },
    {
      "id": 18,
      "name": "bbbbbbbbbbbbbbbbbbb",
      "phone": "bbbbbbbbbbbbbbbbbb",
      "location": "bbbbbbbbbbbbbbbbbbbb"
    },
    {
      "id": 19,
      "name": "xxxxxxxxxx",
      "phone": "xxxxxxxxxxxxxx",
      "location": "xxxxxxxx"
    },
    {
      "id": 20,
      "name": "rrrrrrrrrrrr",
      "phone": "rrrrrrrrrrrr",
      "location": "rrrrrrrrrrr"
    }
  ]
}